{
  "description": "MRC PMFM hydrological monitoring stations on the Lower Mekong mainstream + Tonle Sap system. Coordinates from MRC PMFM portal. Water level thresholds from MRC flood forecasting. Stations 6-10 are on the Kratie-Tonle Sap corridor.",
  "source": "https://pmfm.mrcmekong.org/about-pmfm/hydrological-stations/",
  "stations": [
    {
      "id": "chiang_saen",
      "name": "Chiang Saen",
      "code": "CSN",
      "country": "Thailand",
      "lat": 20.274119,
      "lon": 100.088551,
      "river": "Mekong",
      "drainage_km2": 189000,
      "zero_gauge_msl": 357.11,
      "alarm_level_m": 11.0,
      "flood_level_m": 11.8,
      "dry_min_m": 1.5,
      "wet_max_m": 12.0,
      "on_corridor": false,
      "monitoring": ["hydro"]
    },
    {
      "id": "vientiane",
      "name": "Vientiane",
      "code": "VTE",
      "country": "Lao PDR",
      "lat": 17.930978,
      "lon": 102.615556,
      "river": "Mekong",
      "drainage_km2": 299000,
      "zero_gauge_msl": 158.04,
      "alarm_level_m": 11.5,
      "flood_level_m": 12.5,
      "dry_min_m": 1.0,
      "wet_max_m": 13.0,
      "on_corridor": false,
      "monitoring": ["hydro"]
    },
    {
      "id": "khong_chiam",
      "name": "Khong Chiam",
      "code": "KHC",
      "country": "Thailand",
      "lat": 15.322087,
      "lon": 105.493479,
      "river": "Mekong",
      "drainage_km2": 419000,
      "zero_gauge_msl": 89.03,
      "alarm_level_m": 13.0,
      "flood_level_m": 14.0,
      "dry_min_m": 2.0,
      "wet_max_m": 14.5,
      "on_corridor": false,
      "monitoring": ["hydro"]
    },
    {
      "id": "pakse",
      "name": "Pakse",
      "code": "PKS",
      "country": "Lao PDR",
      "lat": 15.099756,
      "lon": 105.813191,
      "river": "Mekong",
      "drainage_km2": 545000,
      "zero_gauge_msl": 86.49,
      "alarm_level_m": 12.0,
      "flood_level_m": 13.0,
      "dry_min_m": 1.5,
      "wet_max_m": 14.0,
      "on_corridor": false,
      "monitoring": ["hydro"]
    },
    {
      "id": "stung_treng",
      "name": "Stung Treng",
      "code": "STR",
      "country": "Cambodia",
      "lat": 13.532503,
      "lon": 105.95019,
      "river": "Mekong",
      "drainage_km2": 635000,
      "zero_gauge_msl": 36.79,
      "alarm_level_m": 12.0,
      "flood_level_m": 13.0,
      "dry_min_m": 3.0,
      "wet_max_m": 14.0,
      "on_corridor": true,
      "monitoring": ["hydro", "water_quality", "sediment"]
    },
    {
      "id": "kratie",
      "name": "Kratie",
      "code": "KRA",
      "country": "Cambodia",
      "lat": 12.481408,
      "lon": 106.01762,
      "river": "Mekong",
      "drainage_km2": 646000,
      "zero_gauge_msl": -1.08,
      "alarm_level_m": 22.0,
      "flood_level_m": 23.0,
      "dry_min_m": 3.0,
      "wet_max_m": 24.0,
      "on_corridor": true,
      "monitoring": ["hydro", "water_quality", "sediment", "fisheries"],
      "notes": "Last station before Mekong floodplain. Dolphin deep pools upstream."
    },
    {
      "id": "kampong_cham",
      "name": "Kampong Cham",
      "code": "KOM",
      "country": "Cambodia",
      "lat": 11.993,
      "lon": 105.464,
      "river": "Mekong",
      "drainage_km2": null,
      "zero_gauge_msl": -0.93,
      "alarm_level_m": 15.2,
      "flood_level_m": 16.2,
      "dry_min_m": 1.0,
      "wet_max_m": 16.5,
      "on_corridor": true,
      "monitoring": ["hydro", "water_quality"],
      "notes": "Not a PMFM station. Coords approximate (city center). Part of MRC water quality network."
    },
    {
      "id": "chrouy_changvar",
      "name": "Chrouy Changvar",
      "code": "CCV",
      "country": "Cambodia",
      "lat": 11.585336,
      "lon": 104.938663,
      "river": "Mekong",
      "drainage_km2": 663000,
      "zero_gauge_msl": -1.08,
      "alarm_level_m": 11.0,
      "flood_level_m": 11.5,
      "dry_min_m": 0.5,
      "wet_max_m": 11.5,
      "on_corridor": true,
      "monitoring": ["hydro", "water_quality"],
      "notes": "At Phnom Penh confluence (Mekong + Tonle Sap + Bassac)."
    },
    {
      "id": "phnom_penh_port",
      "name": "Phnom Penh Port",
      "code": "PPP",
      "country": "Cambodia",
      "lat": 11.57499,
      "lon": 104.9228,
      "river": "Tonle Sap River",
      "drainage_km2": null,
      "zero_gauge_msl": 0.07,
      "alarm_level_m": 9.5,
      "flood_level_m": 10.0,
      "dry_min_m": 0.1,
      "wet_max_m": 10.0,
      "on_corridor": true,
      "monitoring": ["hydro"],
      "notes": "Tonle Sap River at Phnom Penh. Reverse flow Jun-Oct."
    },
    {
      "id": "prek_kdam",
      "name": "Prek Kdam",
      "code": "PKD",
      "country": "Cambodia",
      "lat": 11.81117,
      "lon": 104.80678,
      "river": "Tonle Sap River",
      "drainage_km2": null,
      "zero_gauge_msl": 0.08,
      "alarm_level_m": 9.0,
      "flood_level_m": 9.5,
      "dry_min_m": 0.5,
      "wet_max_m": 9.5,
      "on_corridor": true,
      "monitoring": ["hydro"],
      "notes": "Mid Tonle Sap River. Reverse flow indicator."
    },
    {
      "id": "kampong_luong",
      "name": "Kampong Luong",
      "code": "KPL",
      "country": "Cambodia",
      "lat": 12.57662,
      "lon": 104.20779,
      "river": "Tonle Sap Lake",
      "drainage_km2": null,
      "zero_gauge_msl": 0.64,
      "alarm_level_m": 9.0,
      "flood_level_m": 10.0,
      "dry_min_m": 1.0,
      "wet_max_m": 10.5,
      "on_corridor": true,
      "monitoring": ["hydro"],
      "notes": "Tonle Sap Lake level. Flood season: lake expands from ~2500 to ~16000 km²."
    },
    {
      "id": "tan_chau",
      "name": "Tan Chau",
      "code": "TCH",
      "country": "Viet Nam",
      "lat": 10.80062,
      "lon": 105.248022,
      "river": "Mekong",
      "drainage_km2": 760000,
      "zero_gauge_msl": 0.0,
      "alarm_level_m": 4.0,
      "flood_level_m": 4.5,
      "dry_min_m": 0.2,
      "wet_max_m": 5.0,
      "on_corridor": false,
      "monitoring": ["hydro"]
    },
    {
      "id": "chau_doc",
      "name": "Chau Doc",
      "code": "CHD",
      "country": "Viet Nam",
      "lat": 10.705284,
      "lon": 105.133506,
      "river": "Bassac",
      "drainage_km2": 760000,
      "zero_gauge_msl": 0.0,
      "alarm_level_m": 3.5,
      "flood_level_m": 4.0,
      "dry_min_m": 0.1,
      "wet_max_m": 4.5,
      "on_corridor": false,
      "monitoring": ["hydro"]
    }
  ]
}
